{
  "type": "FeatureCollection",
  "features": [
    {
      "type": "Feature",
      "properties": {
        "id": "adana",
        "name": "Adana",
        "summary": "Seyhan Nehri kıyısında kurulu, Çukurova'nın başkenti. Hitit ve Roma dönemlerine uzanan köklü geçmişiyle Anadolu'nun güney kapısı."
      },
      "geometry": {
        "type": "Point",
        "coordinates": [
          35.3213,
          37.0
        ]
      }
    },
    {
      "type": "Feature",
      "properties": {
        "id": "afyon",
        "name": "Afyonkarahisar",
        "summary": "Frigya'nın kadim kalbi. 226 metre yüksekliğindeki volkanik kaya üzerindeki kalesi, bölgenin stratejik önemini simgeler."
      },
      "geometry": {
        "type": "Point",
        "coordinates": [
          30.5421,
          38.7507
        ]
      }
    },
    {
      "type": "Feature",
      "properties": {
        "id": "agri",
        "name": "Ağrı",
        "summary": "Türkiye'nin en yüksek dağı Ağrı'ya ev sahipliği yapar. Doğu Anadolu'nun uçsuz bucaksız yaylalarında Urartu izleri."
      },
      "geometry": {
        "type": "Point",
        "coordinates": [
          43.0503,
          39.7217
        ]
      }
    },
    {
      "type": "Feature",
      "properties": {
        "id": "aksaray",
        "name": "Aksaray",
        "summary": "İpek Yolu üzerinde kritik bir durak. Selçuklu dönemine ait kervansarayları ve Ihlara Vadisi'nin bin yıllık kaya kiliseler."
      },
      "geometry": {
        "type": "Point",
        "coordinates": [
          34.0369,
          38.3687
        ]
      }
    },
    {
      "type": "Feature",
      "properties": {
        "id": "amasya",
        "name": "Amasya",
        "summary": "Yeşilırmak kıyısında kaya mezarlarının gölgesinde büyüyen şehir. Pontus krallığının başkentiydi, Osmanlı şehzadeleri burada yetişti."
      },
      "geometry": {
        "type": "Point",
        "coordinates": [
          35.8333,
          40.6499
        ]
      }
    },
    {
      "type": "Feature",
      "properties": {
        "id": "ankara",
        "name": "Ankara",
        "summary": "Frigler ve Galatlar'ın 'Ankyra'sı, bugün Türkiye'nin başkenti. Anadolu Medeniyetleri Müzesi dünyanın en zengin koleksiyonlarından birini barındırır."
      },
      "geometry": {
        "type": "Point",
        "coordinates": [
          32.8597,
          39.9334
        ]
      }
    },
    {
      "type": "Feature",
      "properties": {
        "id": "ardahan",
        "name": "Ardahan",
        "summary": "Doğu Anadolu'nun en sarp sınır ili. Osmanlı, Rus ve Gürcü izlerinin iç içe geçtiği Çıldır Gölü çevresinde tarih solunur."
      },
      "geometry": {
        "type": "Point",
        "coordinates": [
          42.7022,
          41.1105
        ]
      }
    },
    {
      "type": "Feature",
      "properties": {
        "id": "artvin",
        "name": "Artvin",
        "summary": "Gürcü Gürcistan sınırında, Çoruh vadisinin derinliklerinde. Ortaçağ Gürcü mimarisinin en güzel örnekleri burada."
      },
      "geometry": {
        "type": "Point",
        "coordinates": [
          41.8183,
          41.1828
        ]
      }
    },
    {
      "type": "Feature",
      "properties": {
        "id": "balikesir",
        "name": "Balıkesir",
        "summary": "Lidya ve Frigya izlerinin kuzey Ege'de buluştuğu il. Assos'tan Cyzicus'a antik limanların şehri."
      },
      "geometry": {
        "type": "Point",
        "coordinates": [
          27.886,
          39.6484
        ]
      }
    },
    {
      "type": "Feature",
      "properties": {
        "id": "batman",
        "name": "Batman",
        "summary": "Dicle havzasında, Mezopotamya'nın kuzey sınırında. Hasankeyf, 12.000 yıllık kesintisiz yerleşim tarihiyle eşsizdi."
      },
      "geometry": {
        "type": "Point",
        "coordinates": [
          41.1321,
          37.8812
        ]
      }
    },
    {
      "type": "Feature",
      "properties": {
        "id": "bayburt",
        "name": "Bayburt",
        "summary": "Çoruh nehri kenarında Bayburt Kalesi'nin gölgesinde yaşayan küçük il. İpek Yolu'nun Doğu Anadolu güzergahında kritik duraklardan."
      },
      "geometry": {
        "type": "Point",
        "coordinates": [
          40.2553,
          40.2552
        ]
      }
    },
    {
      "type": "Feature",
      "properties": {
        "id": "bilecik",
        "name": "Bilecik",
        "summary": "Osmanlı Devleti'nin kuruluş coğrafyası. Söğüt ilçesinde Ertuğrul Gazi'nin türbesi, imparatorluğun tohumunun atıldığı yer."
      },
      "geometry": {
        "type": "Point",
        "coordinates": [
          29.9792,
          40.1411
        ]
      }
    },
    {
      "type": "Feature",
      "properties": {
        "id": "bingol",
        "name": "Bingöl",
        "summary": "Fırat kollarının beşiğinde, Doğu Anadolu'nun yeşil kalbi. Urartu kalıntıları ve binlerce gölüyle doğanın tarihi."
      },
      "geometry": {
        "type": "Point",
        "coordinates": [
          40.4982,
          38.8854
        ]
      }
    },
    {
      "type": "Feature",
      "properties": {
        "id": "bitlis",
        "name": "Bitlis",
        "summary": "Van Gölü'nün batı kapısı. Ortaçağ'dan bu yana kervansarayları, hamamları ve tarihi kalesiyle korunan şehir."
      },
      "geometry": {
        "type": "Point",
        "coordinates": [
          42.1072,
          38.4007
        ]
      }
    },
    {
      "type": "Feature",
      "properties": {
        "id": "bolu",
        "name": "Bolu",
        "summary": "Bithynia'nın yemyeşil ormanları. İstanbul'un arka bahçesi, Roma döneminde Claudiopolis adıyla bilinen köklü şehir."
      },
      "geometry": {
        "type": "Point",
        "coordinates": [
          31.606,
          40.7359
        ]
      }
    },
    {
      "type": "Feature",
      "properties": {
        "id": "burdur",
        "name": "Burdur",
        "summary": "Pisidya'nın göl yatağında saklanmış Sagalassos — Türkiye'nin en kapsamlı antik kent kazısının yapıldığı yer."
      },
      "geometry": {
        "type": "Point",
        "coordinates": [
          30.2902,
          37.72
        ]
      }
    },
    {
      "type": "Feature",
      "properties": {
        "id": "bursa",
        "name": "Bursa",
        "summary": "Osmanlı'nın ilk başkenti, yeşil dağı ve ipek ticaretinin merkezi. Ulu Cami ve Yeşil Türbe erken Osmanlı mimarisinin şaheserleri."
      },
      "geometry": {
        "type": "Point",
        "coordinates": [
          29.0601,
          40.1885
        ]
      }
    },
    {
      "type": "Feature",
      "properties": {
        "id": "cankiri",
        "name": "Çankırı",
        "summary": "Paflagonia'nın antik kalbi. Roma döneminde tuz madenleri ve stratejik konumuyla öne çıkan iç Anadolu şehri."
      },
      "geometry": {
        "type": "Point",
        "coordinates": [
          33.6134,
          40.6013
        ]
      }
    },
    {
      "type": "Feature",
      "properties": {
        "id": "denizli",
        "name": "Denizli",
        "summary": "Hierapolis ve Laodikeia'nın şehri. Pamukkale'nin beyaz travertenlerinde Romalıların termal kaplıca geleneği yaşatılır."
      },
      "geometry": {
        "type": "Point",
        "coordinates": [
          29.0875,
          37.7765
        ]
      }
    },
    {
      "type": "Feature",
      "properties": {
        "id": "diyarbakir",
        "name": "Diyarbakır",
        "summary": "Siyah bazalt surlarıyla UNESCO listesindeki Tigranokerta. Dicle kıyısında 7000 yıllık tarihiyle Güneydoğu'nun kadim başkenti."
      },
      "geometry": {
        "type": "Point",
        "coordinates": [
          40.2306,
          37.9144
        ]
      }
    },
    {
      "type": "Feature",
      "properties": {
        "id": "edirne",
        "name": "Edirne",
        "summary": "Osmanlı'nın ikinci başkenti, Avrupa'nın kapısı. Selimiye Camii — Sinan'ın kendi şaheseri saydığı eser burada."
      },
      "geometry": {
        "type": "Point",
        "coordinates": [
          26.5557,
          41.6818
        ]
      }
    },
    {
      "type": "Feature",
      "properties": {
        "id": "elazig",
        "name": "Elazığ",
        "summary": "Fırat'ın kollarının kavuştuğu Harput ovasında kurulan il. Antik Harput Kalesi hâlâ vadinin üzerinden tarihe bakıyor."
      },
      "geometry": {
        "type": "Point",
        "coordinates": [
          39.2264,
          38.681
        ]
      }
    },
    {
      "type": "Feature",
      "properties": {
        "id": "erzincan",
        "name": "Erzincan",
        "summary": "Doğu Anadolu'nun kalbinde, Fırat'ın yukarı havzasında. Altın Ege medeniyetleriyle Ortadoğu arasındaki tarihi köprü."
      },
      "geometry": {
        "type": "Point",
        "coordinates": [
          39.4903,
          39.75
        ]
      }
    },
    {
      "type": "Feature",
      "properties": {
        "id": "erzurum",
        "name": "Erzurum",
        "summary": "Doğu Anadolu'nun en büyük şehri, tarihin geçit noktası. Çifte Minareli Medrese Selçuklu taş işçiliğinin zirvesidir."
      },
      "geometry": {
        "type": "Point",
        "coordinates": [
          41.2797,
          39.9208
        ]
      }
    },
    {
      "type": "Feature",
      "properties": {
        "id": "eskisehir",
        "name": "Eskişehir",
        "summary": "Frigya'nın kalbinde, Frigler'in kutsal şehri Gordion yakınında. Midas'ın altın elinin değdiği topraklar."
      },
      "geometry": {
        "type": "Point",
        "coordinates": [
          30.5206,
          39.7767
        ]
      }
    },
    {
      "type": "Feature",
      "properties": {
        "id": "gaziantep",
        "name": "Gaziantep",
        "summary": "Dünyanın en zengin Roma mozaik koleksiyonuna ev sahipliği yapan Zeugma. Aynı zamanda baklava ve fıstığın başkenti."
      },
      "geometry": {
        "type": "Point",
        "coordinates": [
          37.3825,
          37.0662
        ]
      }
    },
    {
      "type": "Feature",
      "properties": {
        "id": "giresun",
        "name": "Giresun",
        "summary": "Dünyanın ilk kirazının yetiştirildiği ve adını aldığı şehir. Pontus Krallığı'nın denize açılan limanı."
      },
      "geometry": {
        "type": "Point",
        "coordinates": [
          38.3895,
          40.9128
        ]
      }
    },
    {
      "type": "Feature",
      "properties": {
        "id": "gumushane",
        "name": "Gümüşhane",
        "summary": "Doğu Karadeniz dağlarında gümüş madenleriyle ün kazanan il. Zigana geçidinin tarihi kadim ticaret yollarına açılır."
      },
      "geometry": {
        "type": "Point",
        "coordinates": [
          39.4814,
          40.4386
        ]
      }
    },
    {
      "type": "Feature",
      "properties": {
        "id": "hakkari",
        "name": "Hakkari",
        "summary": "Türkiye'nin en dağlık ili, Zagros'un zirvelerinde. Antik Urartu kaya işlemeleri ve Ortaçağ kiliseleri izole vadilerde."
      },
      "geometry": {
        "type": "Point",
        "coordinates": [
          43.7408,
          37.5744
        ]
      }
    },
    {
      "type": "Feature",
      "properties": {
        "id": "hatay",
        "name": "Hatay",
        "summary": "Antakya — Antioch. Hristiyanlığın 'Hristiyan' adını ilk aldığı şehir. Dünyanın en büyük mozaik müzesine ev sahipliği yapar."
      },
      "geometry": {
        "type": "Point",
        "coordinates": [
          36.1612,
          36.4018
        ]
      }
    },
    {
      "type": "Feature",
      "properties": {
        "id": "igdir",
        "name": "Iğdır",
        "summary": "Ağrı Dağı'nın eteklerinde, İran ve Ermenistan sınırında. Urartu Krallığı'nın en doğu topraklarından biri."
      },
      "geometry": {
        "type": "Point",
        "coordinates": [
          44.0457,
          39.9179
        ]
      }
    },
    {
      "type": "Feature",
      "properties": {
        "id": "isparta",
        "name": "Isparta",
        "summary": "Gül bahçeleri ve göllerin arasında Pisidya'nın başkenti Antioch. Roma döneminde önemli bir idari merkez."
      },
      "geometry": {
        "type": "Point",
        "coordinates": [
          30.5498,
          37.7648
        ]
      }
    },
    {
      "type": "Feature",
      "properties": {
        "id": "kahramanmaras",
        "name": "Kahramanmaraş",
        "summary": "Maraş'ın kadim kalesi Dulkadiroğulları'nın mirası. Hititler ve Asurlar'ın buluştuğu Güneydoğu Anadolu'nun sınır hattı."
      },
      "geometry": {
        "type": "Point",
        "coordinates": [
          36.9272,
          37.5858
        ]
      }
    },
    {
      "type": "Feature",
      "properties": {
        "id": "karabuk",
        "name": "Karabük",
        "summary": "Safranbolu'nun eşsiz Osmanlı ahşap mimarisini barındıran il. 17-18. yüzyıl Osmanlı şehir dokusunun en iyi korunmuş örneği."
      },
      "geometry": {
        "type": "Point",
        "coordinates": [
          32.6263,
          41.2061
        ]
      }
    },
    {
      "type": "Feature",
      "properties": {
        "id": "karaman",
        "name": "Karaman",
        "summary": "Karamanoğulları beyliğinin başkenti, Türkçenin resmi dil ilan edildiği şehir. Binbirkilise vadisindeki Bizans manastırları."
      },
      "geometry": {
        "type": "Point",
        "coordinates": [
          33.2153,
          37.1759
        ]
      }
    },
    {
      "type": "Feature",
      "properties": {
        "id": "kastamonu",
        "name": "Kastamonu",
        "summary": "Paflagonia'nın kalesi. Osmanlı döneminin en iyi korunmuş geleneksel ev dokularından birini barındıran tarihi şehir."
      },
      "geometry": {
        "type": "Point",
        "coordinates": [
          33.7757,
          41.3887
        ]
      }
    },
    {
      "type": "Feature",
      "properties": {
        "id": "kayseri",
        "name": "Kayseri",
        "summary": "Antik Caesarea — Kapadokya'nın başkenti. Selçuklu'nun ilim ve ticaret merkezi, Anadolu tüccarlarının buluşma noktası."
      },
      "geometry": {
        "type": "Point",
        "coordinates": [
          35.4787,
          38.7312
        ]
      }
    },
    {
      "type": "Feature",
      "properties": {
        "id": "kirikkale",
        "name": "Kırıkkale",
        "summary": "Ankara'nın doğusunda Kızılırmak kıyısında. Anadolu'nun iç kesimlerinde Frigler ve Galatlar'ın geçiş koridoru."
      },
      "geometry": {
        "type": "Point",
        "coordinates": [
          33.5153,
          39.8468
        ]
      }
    },
    {
      "type": "Feature",
      "properties": {
        "id": "kirklareli",
        "name": "Kırklareli",
        "summary": "Trakya'nın kuzeydoğu köşesi. Tunç Çağı'ndan Osmanlı dönemine uzanan Balkan-Anadolu kültür geçişinin yaşandığı sınır ili."
      },
      "geometry": {
        "type": "Point",
        "coordinates": [
          27.2253,
          41.7333
        ]
      }
    },
    {
      "type": "Feature",
      "properties": {
        "id": "kirsehir",
        "name": "Kırşehir",
        "summary": "Anadolu'nun göbeğinde Hacı Bektaş Veli'nin şehri. Ahilik kültürünün ve Selçuklu döneminin Orta Anadolu'daki izleri."
      },
      "geometry": {
        "type": "Point",
        "coordinates": [
          34.1628,
          39.1425
        ]
      }
    },
    {
      "type": "Feature",
      "properties": {
        "id": "kocaeli",
        "name": "Kocaeli",
        "summary": "Antik Nikomedia — Bithynia'nın başkenti ve Roma İmparatoru Diocletianus'un ikametgâhı. İzmit Körfezi'nin kadim limanı."
      },
      "geometry": {
        "type": "Point",
        "coordinates": [
          29.9187,
          40.7654
        ]
      }
    },
    {
      "type": "Feature",
      "properties": {
        "id": "kutahya",
        "name": "Kütahya",
        "summary": "Frigya'nın incisi Aizanoi'yi barındıran il. Zeus Tapınağı ve Roma köprüsüyle dünyanın en iyi korunmuş antik kentlerinden."
      },
      "geometry": {
        "type": "Point",
        "coordinates": [
          29.9833,
          39.4167
        ]
      }
    },
    {
      "type": "Feature",
      "properties": {
        "id": "malatya",
        "name": "Malatya",
        "summary": "Asur ticaret kolonilerinin kurulduğu Arslantepe höyüğü burada. 5000 yıllık saray kalıntılarıyla dünyanın en eski devlet yapılarından."
      },
      "geometry": {
        "type": "Point",
        "coordinates": [
          38.3194,
          38.3552
        ]
      }
    },
    {
      "type": "Feature",
      "properties": {
        "id": "manisa",
        "name": "Manisa",
        "summary": "Antik Magnesia — İyonya'nın iç kentlerinden. Sardes'in Lidya altınlarıyla zenginleştiği bölgenin merkezi."
      },
      "geometry": {
        "type": "Point",
        "coordinates": [
          27.4289,
          38.6191
        ]
      }
    },
    {
      "type": "Feature",
      "properties": {
        "id": "mardin",
        "name": "Mardin",
        "summary": "Mezopotamya ovasına bakan taş şehir. Süryani, Kürt, Arap ve Türk kültürlerinin harmanlandığı çok katmanlı miras."
      },
      "geometry": {
        "type": "Point",
        "coordinates": [
          40.735,
          37.3212
        ]
      }
    },
    {
      "type": "Feature",
      "properties": {
        "id": "mersin",
        "name": "Mersin",
        "summary": "Akdeniz'in doğu kıyısında Kilikya'nın kapısı. Silifke'nin antik Seleucia'sı ve Korykos kalelerinin bekçi şehri."
      },
      "geometry": {
        "type": "Point",
        "coordinates": [
          34.6415,
          36.8
        ]
      }
    },
    {
      "type": "Feature",
      "properties": {
        "id": "mugla",
        "name": "Muğla",
        "summary": "Likya'nın tapınak şehirleri — Kaunos, Knidos, Xanthos. Ölüler Denizi'nin (Ölüdeniz) kıyısında antik uygarlık katmanları."
      },
      "geometry": {
        "type": "Point",
        "coordinates": [
          28.3636,
          37.2154
        ]
      }
    },
    {
      "type": "Feature",
      "properties": {
        "id": "mus",
        "name": "Muş",
        "summary": "Van Gölü ovasında Urartu izlerinin yoğun olduğu il. Varto ve Bulanık'ın kadim köyleri tarihi hafıza taşır."
      },
      "geometry": {
        "type": "Point",
        "coordinates": [
          41.5032,
          38.7462
        ]
      }
    },
    {
      "type": "Feature",
      "properties": {
        "id": "nevsehir",
        "name": "Nevşehir",
        "summary": "Kapadokya'nın peri bacaları, yer altı şehirleri ve kaya kiliseleri. Hristiyan münzevilerinin tüf kayalara oyduğu eşsiz dünya."
      },
      "geometry": {
        "type": "Point",
        "coordinates": [
          34.7236,
          38.6939
        ]
      }
    },
    {
      "type": "Feature",
      "properties": {
        "id": "nigde",
        "name": "Niğde",
        "summary": "Kapadokya'nın güneyinde Hitit ve Roma izleriyle dolu il. Aktaş Gölü çevresinde tunç çağından kalma mezar höyükleri."
      },
      "geometry": {
        "type": "Point",
        "coordinates": [
          34.6796,
          37.9667
        ]
      }
    },
    {
      "type": "Feature",
      "properties": {
        "id": "ordu",
        "name": "Ordu",
        "summary": "Pontus Krallığı'nın Karadeniz kıyısında fındık bahçeleri arasına gizlenmiş şehri. Antik liman Kotyora'nın izleri."
      },
      "geometry": {
        "type": "Point",
        "coordinates": [
          37.8797,
          40.9862
        ]
      }
    },
    {
      "type": "Feature",
      "properties": {
        "id": "osmaniye",
        "name": "Osmaniye",
        "summary": "Anadolu ile Mezopotamya arasındaki Kilikya geçidinde kurulu il. Karatepe'nin geç Hitit açık hava müzesi burada."
      },
      "geometry": {
        "type": "Point",
        "coordinates": [
          36.2478,
          37.0746
        ]
      }
    },
    {
      "type": "Feature",
      "properties": {
        "id": "rize",
        "name": "Rize",
        "summary": "Türk çayının anavatanı, Doğu Karadeniz'in yayla şehri. Antik Colchis'in sınırında altın arayan Argonotlar'ın kıyısı."
      },
      "geometry": {
        "type": "Point",
        "coordinates": [
          40.5234,
          41.0201
        ]
      }
    },
    {
      "type": "Feature",
      "properties": {
        "id": "sakarya",
        "name": "Sakarya",
        "summary": "Bithynia'nın Sangarios nehri kıyısında. Türk Kurtuluş Savaşı'nın kaderini belirleyen Sakarya Meydan Muharebesi'nin sahası."
      },
      "geometry": {
        "type": "Point",
        "coordinates": [
          30.3939,
          40.7569
        ]
      }
    },
    {
      "type": "Feature",
      "properties": {
        "id": "samsun",
        "name": "Samsun",
        "summary": "Pontus krallığının Amisos limanı, Karadeniz'in en büyük şehri. Atatürk'ün 1919'da Kurtuluş Savaşı'nı başlattığı toprak."
      },
      "geometry": {
        "type": "Point",
        "coordinates": [
          36.3317,
          41.2867
        ]
      }
    },
    {
      "type": "Feature",
      "properties": {
        "id": "siirt",
        "name": "Siirt",
        "summary": "Dicle'nin kolları arasında Güneydoğu Anadolu'da. Tillo'nun Arap mimarisi ve Botan vadisinin ortaçağ köprüleri."
      },
      "geometry": {
        "type": "Point",
        "coordinates": [
          41.95,
          37.9333
        ]
      }
    },
    {
      "type": "Feature",
      "properties": {
        "id": "sinop",
        "name": "Sinop",
        "summary": "Karadeniz'in en kuzey noktası, antik Sinope. Diyojen'in doğduğu şehir, dünyanın ilk sinizm filozofunun vatanı."
      },
      "geometry": {
        "type": "Point",
        "coordinates": [
          35.1553,
          42.0231
        ]
      }
    },
    {
      "type": "Feature",
      "properties": {
        "id": "sivas",
        "name": "Sivas",
        "summary": "Selçuklu döneminin en büyük medrese kompleksi burada — Divriği Ulu Camii UNESCO listesinde. İç Anadolu'nun kültür başkenti."
      },
      "geometry": {
        "type": "Point",
        "coordinates": [
          37.0179,
          39.7477
        ]
      }
    },
    {
      "type": "Feature",
      "properties": {
        "id": "sirnak",
        "name": "Şırnak",
        "summary": "Cudi Dağı'nda Nuh'un gemisinin karaya oturduğuna inanılan bölge. Dicle ve Habur'un kavuştuğu tarihi sınır ili."
      },
      "geometry": {
        "type": "Point",
        "coordinates": [
          42.4619,
          37.5164
        ]
      }
    },
    {
      "type": "Feature",
      "properties": {
        "id": "tekirdag",
        "name": "Tekirdağ",
        "summary": "Trakya'nın Marmara kıyısında antik Raidestos. Namık Kemal'in sürgün şehri, Osmanlı tahıl ticaretinin merkezi."
      },
      "geometry": {
        "type": "Point",
        "coordinates": [
          27.5161,
          40.9781
        ]
      }
    },
    {
      "type": "Feature",
      "properties": {
        "id": "tokat",
        "name": "Tokat",
        "summary": "Yeşilırmak vadisinde Komana Pontika — Roma döneminin büyük dini merkezi. Osmanlı kervansarayları ve Niksar'ın deprem tarihi."
      },
      "geometry": {
        "type": "Point",
        "coordinates": [
          36.5684,
          40.3167
        ]
      }
    },
    {
      "type": "Feature",
      "properties": {
        "id": "trabzon",
        "name": "Trabzon",
        "summary": "Pontus İmparatorluğu'nun Trabzon'u, Bizans sonrası Karadeniz'de hayatta kalan son Rum imparatorluğunun başkenti."
      },
      "geometry": {
        "type": "Point",
        "coordinates": [
          39.7277,
          41.0015
        ]
      }
    },
    {
      "type": "Feature",
      "properties": {
        "id": "tunceli",
        "name": "Tunceli",
        "summary": "Munzur dağlarında ıssız ve derin Dersim. Antik Alzi ve Hanigalbat krallıklarının topraklarında, Zaza kültürünün kalbi."
      },
      "geometry": {
        "type": "Point",
        "coordinates": [
          39.548,
          39.1079
        ]
      }
    },
    {
      "type": "Feature",
      "properties": {
        "id": "usak",
        "name": "Uşak",
        "summary": "Lidya topraklarının batı sınırı. Karun Hazinesi'nin çıkarıldığı yer — ve Amerika'dan geri alınan mücadelenin sembolü."
      },
      "geometry": {
        "type": "Point",
        "coordinates": [
          29.4058,
          38.6823
        ]
      }
    },
    {
      "type": "Feature",
      "properties": {
        "id": "van",
        "name": "Van",
        "summary": "Urartu İmparatorluğu'nun başkenti Tuşpa. Van Kalesi'nin kayalara oyulan yazıtları ve Van Gölü'nün eşsiz sularında tarih."
      },
      "geometry": {
        "type": "Point",
        "coordinates": [
          43.38,
          38.4942
        ]
      }
    },
    {
      "type": "Feature",
      "properties": {
        "id": "yozgat",
        "name": "Yozgat",
        "summary": "İç Anadolu'da Galatlar'ın coğrafyasında. Boğazköy yakınında Hitit izleriyle dolu, at yetiştiriciliğiyle ünlü il."
      },
      "geometry": {
        "type": "Point",
        "coordinates": [
          34.8027,
          39.8181
        ]
      }
    },
    {
      "type": "Feature",
      "properties": {
        "id": "zonguldak",
        "name": "Zonguldak",
        "summary": "Batı Karadeniz'in kömür madenleri şehri. Antik Filyos (Tios) limanında Hellenistik ticaretin izleri hâlâ toprağa gömülü."
      },
      "geometry": {
        "type": "Point",
        "coordinates": [
          31.7987,
          41.4564
        ]
      }
    }
  ]
}